[{"name":"東京","rating":10.9,"lat":35.681382,"lng":139.766084,"vicinity":""},
  {"name":"神田","rating":9.3,"lat":35.69169,"lng":139.770883,"vicinity":""},
  {"name":"御茶ノ水","rating":9.7,"lat":35.699855,"lng":139.763786,"vicinity":""},
  {"name":"水道橋","rating":9.8,"lat":35.70203,"lng":139.753653,"vicinity":""},
  {"name":"飯田橋","rating":9.7,"lat":35.702065,"lng":139.745015,"vicinity":""},
  {"name":"市ケ谷","rating":8.8,"lat":35.6912107320703,"lng":139.73649022635,"vicinity":""},
  {"name":"四ツ谷","rating":9.4,"lat":35.686014,"lng":139.730667,"vicinity":""},
  {"name":"信濃町","rating":9.5,"lat":35.68009,"lng":139.720243,"vicinity":""},
  {"name":"千駄ケ谷","rating":10.2,"lat":35.681231,"lng":139.711644,"vicinity":""},
  {"name":"代々木","rating":9.9,"lat":35.6830438382709,"lng":139.70207164355,"vicinity":""},
  {"name":"新宿","rating":9.8,"lat":35.6884464421313,"lng":139.698601593263,"vicinity":""},
  {"name":"大久保","rating":9,"lat":35.700722,"lng":139.697358,"vicinity":""},
  {"name":"東中野","rating":8.4,"lat":35.7061216972349,"lng":139.68379064463,"vicinity":""},
  {"name":"中野","rating":8.6,"lat":35.706032,"lng":139.665652,"vicinity":""},
  {"name":"高円寺","rating":7.8,"lat":35.705385,"lng":139.649867,"vicinity":""},
  {"name":"阿佐ケ谷","rating":7.8,"lat":35.704818,"lng":139.635868,"vicinity":""},
  {"name":"荻窪","rating":7.7,"lat":35.704632,"lng":139.619981,"vicinity":""},
  {"name":"西荻窪","rating":7.6,"lat":35.703842,"lng":139.599361,"vicinity":""},
  {"name":"吉祥寺","rating":7.3,"lat":35.702112100252,"lng":139.580452570226,"vicinity":""},
  {"name":"三鷹","rating":7.2,"lat":35.702708,"lng":139.560831,"vicinity":""},
  {"name":"武蔵境","rating":6.9,"lat":35.7021636,"lng":139.5446981,"vicinity":""},
  {"name":"東小金井","rating":6.4,"lat":35.701743,"lng":139.524831,"vicinity":""},
  {"name":"武蔵小金井","rating":6.2,"lat":35.701351,"lng":139.50645,"vicinity":""},
  {"name":"国分寺","rating":6,"lat":35.700256,"lng":139.480257,"vicinity":""},
  {"name":"西国分寺","rating":5.9,"lat":35.699769,"lng":139.465714,"vicinity":""},
  {"name":"国立","rating":5.6,"lat":35.699002,"lng":139.446385,"vicinity":""},
  {"name":"立川","rating":6.2,"lat":35.697899,"lng":139.413957,"vicinity":""},
  {"name":"日野","rating":5.5,"lat":35.679245,"lng":139.393998,"vicinity":""},
  {"name":"豊田","rating":5.1,"lat":35.659502,"lng":139.381495,"vicinity":""},
  {"name":"八王子","rating":5,"lat":35.655641,"lng":139.338968,"vicinity":""},
  {"name":"西八王子","rating":4.6,"lat":35.656777,"lng":139.312517,"vicinity":""},
  {"name":"高尾","rating":4.8,"lat":35.642228,"lng":139.281787,"vicinity":""},
  {"name":"江坂","rating":5.8,"lat":34.757905,"lng":135.49702,"vicinity":""},
  {"name":"東三国","rating":4.9,"lat":34.741035,"lng":135.498512,"vicinity":""},
  {"name":"新大阪","rating":5.3,"lat":34.73348,"lng":135.500109,"vicinity":""},
  {"name":"西中島南方","rating":4.8,"lat":34.725717,"lng":135.499121,"vicinity":""},
  {"name":"中津","rating":7,"lat":34.71103,"lng":135.496912,"vicinity":""},
  {"name":"梅田","rating":7.8,"lat":34.705517,"lng":135.498312,"vicinity":""},
  {"name":"淀屋橋","rating":6,"lat":34.692321,"lng":135.501004,"vicinity":""},
  {"name":"本町","rating":5.9,"lat":34.681936,"lng":135.498982,"vicinity":""},
  {"name":"心斎橋","rating":8,"lat":34.675012,"lng":135.50033,"vicinity":""},
  {"name":"なんば","rating":6.9,"lat":34.666316,"lng":135.500277,"vicinity":""},
  {"name":"大国町","rating":5,"lat":34.656075,"lng":135.4978,"vicinity":""},
  {"name":"動物園前","rating":5.3,"lat":34.648815,"lng":135.504413,"vicinity":""},
  {"name":"天王寺","rating":4.9,"lat":34.647321,"lng":135.51394,"vicinity":""},
  {"name":"昭和町","rating":4.7,"lat":34.633564,"lng":135.516954,"vicinity":""},
  {"name":"西田辺","rating":4.6,"lat":34.621627,"lng":135.515152,"vicinity":""},
  {"name":"長居","rating":4.4,"lat":34.611114,"lng":135.512599,"vicinity":""},
  {"name":"あびこ","rating":4.5,"lat":34.598821,"lng":135.512747,"vicinity":""},
  {"name":"北花田","rating":4.8,"lat":34.581873,"lng":135.516469,"vicinity":""},
  {"name":"新金岡","rating":5,"lat":34.567447,"lng":135.514864,"vicinity":""},
  {"name":"なかもず","rating":4.8,"lat":34.556048,"lng":135.505804,"vicinity":""},
  {"name":"中村区役所","rating":5.5,"lat":35.167611,"lng":136.873126,"vicinity":""},
  {"name":"名古屋","rating":5.7,"lat":35.170694,"lng":136.881637,"vicinity":""},
  {"name":"国際センター","rating":5.8,"lat":35.172128,"lng":136.889375,"vicinity":""},
  {"name":"丸の内","rating":5.9,"lat":35.183782,"lng":136.89038,"vicinity":""},
  {"name":"久屋大通","rating":6.1,"lat":35.173784,"lng":136.908156,"vicinity":""},
  {"name":"高岳","rating":6,"lat":35.174062,"lng":136.915656,"vicinity":""},
  {"name":"車道","rating":5.9,"lat":35.173507,"lng":136.929543,"vicinity":""},
  {"name":"今池","rating":5.5,"lat":35.169919,"lng":136.937331,"vicinity":""},
  {"name":"吹上","rating":5.1,"lat":35.159042,"lng":136.935276,"vicinity":""},
  {"name":"御器所","rating":4.9,"lat":35.149585,"lng":136.934146,"vicinity":""},
  {"name":"桜山","rating":4.7,"lat":35.139695,"lng":136.933316,"vicinity":""},
  {"name":"瑞穂区役所","rating":4.7,"lat":35.131793,"lng":136.93443,"vicinity":""},
  {"name":"瑞穂運動場西","rating":5,"lat":35.117728,"lng":136.937741,"vicinity":""},
  {"name":"新瑞橋","rating":5.1,"lat":35.124949,"lng":136.935477,"vicinity":""},
  {"name":"桜本町","rating":4.7,"lat":35.109001,"lng":136.936761,"vicinity":""},
  {"name":"鶴里","rating":4.3,"lat":35.105738,"lng":136.943433,"vicinity":""},
  {"name":"野並","rating":4.3,"lat":35.102358,"lng":136.95549,"vicinity":""},
  {"name":"鳴子北","rating":4.2,"lat":35.102684,"lng":136.966209,"vicinity":""},
  {"name":"相生山","rating":4.2,"lat":35.102545,"lng":136.976208,"vicinity":""},
  {"name":"神沢","rating":4.4,"lat":35.098518,"lng":136.98954,"vicinity":""},
  {"name":"徳重","rating":4.5,"lat":35.094491,"lng":136.99815,"vicinity":""},
  {"name":"福岡空港","rating":4.6,"lat":33.597055,"lng":130.448598,"vicinity":""},
  {"name":"東比恵","rating":5.2,"lat":33.589958,"lng":130.43128,"vicinity":""},
  {"name":"博多","rating":5.1,"lat":33.590002,"lng":130.420622,"vicinity":""},
  {"name":"祇園","rating":5.1,"lat":33.594124,"lng":130.414614,"vicinity":""},
  {"name":"中洲川端","rating":5.2,"lat":33.594749,"lng":130.406418,"vicinity":""},
  {"name":"天神","rating":5.4,"lat":33.591346,"lng":130.39906,"vicinity":""},
  {"name":"赤坂","rating":5.2,"lat":33.589124,"lng":130.391005,"vicinity":""},
  {"name":"大濠公園","rating":4.6,"lat":33.589957,"lng":130.378784,"vicinity":""},
  {"name":"唐人町","rating":4.5,"lat":33.590235,"lng":130.370451,"vicinity":""},
  {"name":"西新","rating":4.1,"lat":33.583846,"lng":130.359619,"vicinity":""},
  {"name":"藤崎","rating":3.7,"lat":33.581347,"lng":130.348231,"vicinity":""},
  {"name":"室見","rating":3.8,"lat":33.581069,"lng":130.340176,"vicinity":""},
  {"name":"姪浜","rating":3.9,"lat":33.583764,"lng":130.32521,"vicinity":""}]
